{
"type": "FeatureCollection",
"name": "Weather_Station_List",
"crs": { "type": "name", "properties": { "name": "urn:ogc:def:crs:EPSG::4269" } },
"features": [
{ "type": "Feature", "properties": { "InventoryId": "733845", "ShortName": "KAAF", "LongName": "Apalachicola Municipal Airport", "Latitude": 29.73, "Longitude": -85.019997 }, "geometry": { "type": "Point", "coordinates": [ -85.019997, 29.73 ] } },
{ "type": "Feature", "properties": { "InventoryId": "733850", "ShortName": "KABI", "LongName": "Abilene Regional Airport", "Latitude": 32.419998, "Longitude": -99.68 }, "geometry": { "type": "Point", "coordinates": [ -99.68, 32.419998 ] } },
{ "type": "Feature", "properties": { "InventoryId": "733851", "ShortName": "KABQ", "LongName": "Albuquerque International Airport", "Latitude": 35.049999, "Longitude": -106.620003 }, "geometry": { "type": "Point", "coordinates": [ -106.620003, 35.049999 ] } },
{ "type": "Feature", "properties": { "InventoryId": "733852", "ShortName": "KABR", "LongName": "Aberdeen Regional Airport", "Latitude": 45.450001, "Longitude": -98.43 }, "geometry": { "type": "Point", "coordinates": [ -98.43, 45.450001 ] } },
{ "type": "Feature", "properties": { "InventoryId": "733859", "ShortName": "KACT", "LongName": "Waco Regional Airport", "Latitude": 31.620001, "Longitude": -97.220001 }, "geometry": { "type": "Point", "coordinates": [ -97.220001, 31.620001 ] } },
{ "type": "Feature", "properties": { "InventoryId": "733861", "ShortName": "KACY", "LongName": "Atlantic City International Airport", "Latitude": 39.450001, "Longitude": -74.57 }, "geometry": { "type": "Point", "coordinates": [ -74.57, 39.450001 ] } },
{ "type": "Feature", "properties": { "InventoryId": "733881", "ShortName": "KAGS", "LongName": "Augusta Bush Field", "Latitude": 33.369999, "Longitude": -81.970001 }, "geometry": { "type": "Point", "coordinates": [ -81.970001, 33.369999 ] } },
{ "type": "Feature", "properties": { "InventoryId": "733882", "ShortName": "KAHN", "LongName": "Athens Ben Epps Airport", "Latitude": 33.950001, "Longitude": -83.32 }, "geometry": { "type": "Point", "coordinates": [ -83.32, 33.950001 ] } },
{ "type": "Feature", "properties": { "InventoryId": "733903", "ShortName": "KALO", "LongName": "Waterloo Municipal Airport", "Latitude": 42.549999, "Longitude": -92.400002 }, "geometry": { "type": "Point", "coordinates": [ -92.400002, 42.549999 ] } },
{ "type": "Feature", "properties": { "InventoryId": "733904", "ShortName": "KALS", "LongName": "Alamosa San Luis Valley Regional", "Latitude": 37.450001, "Longitude": -105.870003 }, "geometry": { "type": "Point", "coordinates": [ -105.870003, 37.450001 ] } },
{ "type": "Feature", "properties": { "InventoryId": "733907", "ShortName": "KAMA", "LongName": "Amarillo International Airport", "Latitude": 35.23, "Longitude": -101.699997 }, "geometry": { "type": "Point", "coordinates": [ -101.699997, 35.23 ] } },
{ "type": "Feature", "properties": { "InventoryId": "733924", "ShortName": "KAPN", "LongName": "Alpena County Regional Airport", "Latitude": 45.07, "Longitude": -83.57 }, "geometry": { "type": "Point", "coordinates": [ -83.57, 45.07 ] } },
{ "type": "Feature", "properties": { "InventoryId": "733947", "ShortName": "KAST", "LongName": "Astoria Regional Airport", "Latitude": 46.150002, "Longitude": -123.879997 }, "geometry": { "type": "Point", "coordinates": [ -123.879997, 46.150002 ] } },
{ "type": "Feature", "properties": { "InventoryId": "733950", "ShortName": "KATL", "LongName": "Atlanta Hartsfield International Airport", "Latitude": 33.650002, "Longitude": -84.419998 }, "geometry": { "type": "Point", "coordinates": [ -84.419998, 33.650002 ] } },
{ "type": "Feature", "properties": { "InventoryId": "733953", "ShortName": "KATT", "LongName": "Austin Camp Mabry", "Latitude": 30.32, "Longitude": -97.760002 }, "geometry": { "type": "Point", "coordinates": [ -97.760002, 30.32 ] } },
{ "type": "Feature", "properties": { "InventoryId": "733960", "ShortName": "KAUS", "LongName": "Austin - Bergstrom International", "Latitude": 30.190001, "Longitude": -97.68 }, "geometry": { "type": "Point", "coordinates": [ -97.68, 30.190001 ] } },
{ "type": "Feature", "properties": { "InventoryId": "733964", "ShortName": "KAVL", "LongName": "Asheville Regional Airport", "Latitude": 35.43, "Longitude": -82.550003 }, "geometry": { "type": "Point", "coordinates": [ -82.550003, 35.43 ] } },
{ "type": "Feature", "properties": { "InventoryId": "733965", "ShortName": "KAVP", "LongName": "Wilkes-Barre Scranton International Airport", "Latitude": 41.330002, "Longitude": -75.730003 }, "geometry": { "type": "Point", "coordinates": [ -75.730003, 41.330002 ] } },
{ "type": "Feature", "properties": { "InventoryId": "734010", "ShortName": "KBFF", "LongName": "Scottsbluff W B Heilig Field", "Latitude": 41.869999, "Longitude": -103.599998 }, "geometry": { "type": "Point", "coordinates": [ -103.599998, 41.869999 ] } },
{ "type": "Feature", "properties": { "InventoryId": "734012", "ShortName": "KBFL", "LongName": "Bakersfield Meadows Field", "Latitude": 35.43, "Longitude": -119.050003 }, "geometry": { "type": "Point", "coordinates": [ -119.050003, 35.43 ] } },
{ "type": "Feature", "properties": { "InventoryId": "734023", "ShortName": "KBHM", "LongName": "Birmingham Municipal Airport", "Latitude": 33.57, "Longitude": -86.75 }, "geometry": { "type": "Point", "coordinates": [ -86.75, 33.57 ] } },
{ "type": "Feature", "properties": { "InventoryId": "734027", "ShortName": "KBIH", "LongName": "Bishop Airport", "Latitude": 37.369999, "Longitude": -118.370003 }, "geometry": { "type": "Point", "coordinates": [ -118.370003, 37.369999 ] } },
{ "type": "Feature", "properties": { "InventoryId": "734029", "ShortName": "KBIL", "LongName": "Billings Logan International Airport", "Latitude": 45.799999, "Longitude": -108.529999 }, "geometry": { "type": "Point", "coordinates": [ -108.529999, 45.799999 ] } },
{ "type": "Feature", "properties": { "InventoryId": "734030", "ShortName": "KBIS", "LongName": "Bismarck Municipal Airport", "Latitude": 46.77, "Longitude": -100.75 }, "geometry": { "type": "Point", "coordinates": [ -100.75, 46.77 ] } },
{ "type": "Feature", "properties": { "InventoryId": "734045", "ShortName": "KBKW", "LongName": "Beckley Raleigh County Memorial Airport", "Latitude": 37.779999, "Longitude": -81.120003 }, "geometry": { "type": "Point", "coordinates": [ -81.120003, 37.779999 ] } },
{ "type": "Feature", "properties": { "InventoryId": "734059", "ShortName": "KBNA", "LongName": "Nashville International Airport", "Latitude": 36.130001, "Longitude": -86.68 }, "geometry": { "type": "Point", "coordinates": [ -86.68, 36.130001 ] } },
{ "type": "Feature", "properties": { "InventoryId": "734061", "ShortName": "KBNO", "LongName": "Burns Municipal Airport", "Latitude": 43.580002, "Longitude": -118.949997 }, "geometry": { "type": "Point", "coordinates": [ -118.949997, 43.580002 ] } },
{ "type": "Feature", "properties": { "InventoryId": "734063", "ShortName": "KBOI", "LongName": "Boise Air Terminal", "Latitude": 43.57, "Longitude": -116.220001 }, "geometry": { "type": "Point", "coordinates": [ -116.220001, 43.57 ] } },
{ "type": "Feature", "properties": { "InventoryId": "734071", "ShortName": "KBPT", "LongName": "Jacks Brooks Airport formerly Port Arthur Southeast Texas Regional Airport", "Latitude": 29.950001, "Longitude": -94.019997 }, "geometry": { "type": "Point", "coordinates": [ -94.019997, 29.950001 ] } },
{ "type": "Feature", "properties": { "InventoryId": "734076", "ShortName": "KBRO", "LongName": "Brownsville South Padre Island International Airport", "Latitude": 25.9, "Longitude": -97.43 }, "geometry": { "type": "Point", "coordinates": [ -97.43, 25.9 ] } },
{ "type": "Feature", "properties": { "InventoryId": "734112", "ShortName": "KCAE", "LongName": "Columbia Metro Airport", "Latitude": 33.950001, "Longitude": -81.120003 }, "geometry": { "type": "Point", "coordinates": [ -81.120003, 33.950001 ] } },
{ "type": "Feature", "properties": { "InventoryId": "734115", "ShortName": "KCAO", "LongName": "Clayton Municipal Airpark", "Latitude": 36.450001, "Longitude": -103.150002 }, "geometry": { "type": "Point", "coordinates": [ -103.150002, 36.450001 ] } },
{ "type": "Feature", "properties": { "InventoryId": "734116", "ShortName": "KCAR", "LongName": "Caribou Municipal Airport", "Latitude": 46.869999, "Longitude": -68.019997 }, "geometry": { "type": "Point", "coordinates": [ -68.019997, 46.869999 ] } },
{ "type": "Feature", "properties": { "InventoryId": "734152", "ShortName": "KCHA", "LongName": "Chattanooga Lovell Field Airport", "Latitude": 35.029999, "Longitude": -85.199997 }, "geometry": { "type": "Point", "coordinates": [ -85.199997, 35.029999 ] } },
{ "type": "Feature", "properties": { "InventoryId": "734156", "ShortName": "KCHS", "LongName": "Charleston International Airport", "Latitude": 32.900002, "Longitude": -80.029999 }, "geometry": { "type": "Point", "coordinates": [ -80.029999, 32.900002 ] } },
{ "type": "Feature", "properties": { "InventoryId": "734158", "ShortName": "KCID", "LongName": "Cedar Rapids Municipal Airport", "Latitude": 41.880001, "Longitude": -91.720001 }, "geometry": { "type": "Point", "coordinates": [ -91.720001, 41.880001 ] } },
{ "type": "Feature", "properties": { "InventoryId": "734175", "ShortName": "KCLT", "LongName": "Charlotte Douglas International Airport", "Latitude": 35.220001, "Longitude": -80.93 }, "geometry": { "type": "Point", "coordinates": [ -80.93, 35.220001 ] } },
{ "type": "Feature", "properties": { "InventoryId": "734182", "ShortName": "KCMX", "LongName": "Hancock Houghton Co Airport", "Latitude": 47.169998, "Longitude": -88.5 }, "geometry": { "type": "Point", "coordinates": [ -88.5, 47.169998 ] } },
{ "type": "Feature", "properties": { "InventoryId": "734186", "ShortName": "KCNK", "LongName": "Concordia Blosser Municipal Airport", "Latitude": 39.549999, "Longitude": -97.650002 }, "geometry": { "type": "Point", "coordinates": [ -97.650002, 39.549999 ] } },
{ "type": "Feature", "properties": { "InventoryId": "734198", "ShortName": "KCOS", "LongName": "Colorado Springs Municipal Airport", "Latitude": 38.82, "Longitude": -104.720001 }, "geometry": { "type": "Point", "coordinates": [ -104.720001, 38.82 ] } },
{ "type": "Feature", "properties": { "InventoryId": "734200", "ShortName": "KCOU", "LongName": "Columbia Regional Airport", "Latitude": 38.82, "Longitude": -92.220001 }, "geometry": { "type": "Point", "coordinates": [ -92.220001, 38.82 ] } },
{ "type": "Feature", "properties": { "InventoryId": "734203", "ShortName": "KCPR", "LongName": "Casper Natrona County International Airport", "Latitude": 42.900002, "Longitude": -106.470001 }, "geometry": { "type": "Point", "coordinates": [ -106.470001, 42.900002 ] } },
{ "type": "Feature", "properties": { "InventoryId": "734216", "ShortName": "KCRP", "LongName": "Corpus Christi International Airport", "Latitude": 27.77, "Longitude": -97.5 }, "geometry": { "type": "Point", "coordinates": [ -97.5, 27.77 ] } },
{ "type": "Feature", "properties": { "InventoryId": "734219", "ShortName": "KCRW", "LongName": "Charleston Yeager Airport", "Latitude": 38.369999, "Longitude": -81.599998 }, "geometry": { "type": "Point", "coordinates": [ -81.599998, 38.369999 ] } },
{ "type": "Feature", "properties": { "InventoryId": "734234", "ShortName": "KCVG", "LongName": "Cincinnati Northern Kentucky Airport", "Latitude": 39.049999, "Longitude": -84.669998 }, "geometry": { "type": "Point", "coordinates": [ -84.669998, 39.049999 ] } },
{ "type": "Feature", "properties": { "InventoryId": "734252", "ShortName": "KCYS", "LongName": "Cheyenne Municipal Airport", "Latitude": 41.150002, "Longitude": -104.82 }, "geometry": { "type": "Point", "coordinates": [ -104.82, 41.150002 ] } },
{ "type": "Feature", "properties": { "InventoryId": "734272", "ShortName": "KDBQ", "LongName": "Dubuque Regional Airport", "Latitude": 42.400002, "Longitude": -90.699997 }, "geometry": { "type": "Point", "coordinates": [ -90.699997, 42.400002 ] } },
{ "type": "Feature", "properties": { "InventoryId": "734273", "ShortName": "KDCA", "LongName": "Washington Reagan National Airport", "Latitude": 38.849998, "Longitude": -77.029999 }, "geometry": { "type": "Point", "coordinates": [ -77.029999, 38.849998 ] } },
{ "type": "Feature", "properties": { "InventoryId": "734277", "ShortName": "KDDC", "LongName": "Dodge City Regional Airport", "Latitude": 37.77, "Longitude": -99.970001 }, "geometry": { "type": "Point", "coordinates": [ -99.970001, 37.77 ] } },
{ "type": "Feature", "properties": { "InventoryId": "734282", "ShortName": "KDEN", "LongName": "Denver International Airport", "Latitude": 39.830002, "Longitude": -104.660004 }, "geometry": { "type": "Point", "coordinates": [ -104.660004, 39.830002 ] } },
{ "type": "Feature", "properties": { "InventoryId": "734287", "ShortName": "KDFW", "LongName": "Dallas-Fort Worth International Airport", "Latitude": 32.900002, "Longitude": -97.029999 }, "geometry": { "type": "Point", "coordinates": [ -97.029999, 32.900002 ] } },
{ "type": "Feature", "properties": { "InventoryId": "734297", "ShortName": "KDLH", "LongName": "Duluth International Airport", "Latitude": 46.849998, "Longitude": -92.18 }, "geometry": { "type": "Point", "coordinates": [ -92.18, 46.849998 ] } },
{ "type": "Feature", "properties": { "InventoryId": "734317", "ShortName": "KDRA", "LongName": "Mercury Desert Rock Airport", "Latitude": 36.619999, "Longitude": -116.019997 }, "geometry": { "type": "Point", "coordinates": [ -116.019997, 36.619999 ] } },
{ "type": "Feature", "properties": { "InventoryId": "734321", "ShortName": "KDRT", "LongName": "Del Rio International Airport", "Latitude": 29.370001, "Longitude": -100.919998 }, "geometry": { "type": "Point", "coordinates": [ -100.919998, 29.370001 ] } },
{ "type": "Feature", "properties": { "InventoryId": "734322", "ShortName": "KDSM", "LongName": "Des Moines International Airport", "Latitude": 41.529999, "Longitude": -93.650002 }, "geometry": { "type": "Point", "coordinates": [ -93.650002, 41.529999 ] } },
{ "type": "Feature", "properties": { "InventoryId": "734390", "ShortName": "KEKN", "LongName": "Elkins Elkins-Randolph County Airport", "Latitude": 38.880001, "Longitude": -79.849998 }, "geometry": { "type": "Point", "coordinates": [ -79.849998, 38.880001 ] } },
{ "type": "Feature", "properties": { "InventoryId": "734400", "ShortName": "KELP", "LongName": "El Paso International Airport", "Latitude": 31.799999, "Longitude": -106.400002 }, "geometry": { "type": "Point", "coordinates": [ -106.400002, 31.799999 ] } },
{ "type": "Feature", "properties": { "InventoryId": "734401", "ShortName": "KELY", "LongName": "Ely Yelland Field", "Latitude": 39.279999, "Longitude": -114.849998 }, "geometry": { "type": "Point", "coordinates": [ -114.849998, 39.279999 ] } },
{ "type": "Feature", "properties": { "InventoryId": "734410", "ShortName": "KENV", "LongName": "Wendover Usaf Auxiliary Field", "Latitude": 40.73, "Longitude": -114.029999 }, "geometry": { "type": "Point", "coordinates": [ -114.029999, 40.73 ] } },
{ "type": "Feature", "properties": { "InventoryId": "734426", "ShortName": "KEUG", "LongName": "Eugene Mahlon Sweet Airport", "Latitude": 44.119999, "Longitude": -123.220001 }, "geometry": { "type": "Point", "coordinates": [ -123.220001, 44.119999 ] } },
{ "type": "Feature", "properties": { "InventoryId": "734430", "ShortName": "KEVV", "LongName": "Evansville Regional Airport", "Latitude": 38.049999, "Longitude": -87.529999 }, "geometry": { "type": "Point", "coordinates": [ -87.529999, 38.049999 ] } },
{ "type": "Feature", "properties": { "InventoryId": "734438", "ShortName": "KEYW", "LongName": "Key West International Airport", "Latitude": 24.549999, "Longitude": -81.75 }, "geometry": { "type": "Point", "coordinates": [ -81.75, 24.549999 ] } },
{ "type": "Feature", "properties": { "InventoryId": "734449", "ShortName": "KFAR", "LongName": "Fargo Hector International Airport", "Latitude": 46.900002, "Longitude": -96.800003 }, "geometry": { "type": "Point", "coordinates": [ -96.800003, 46.900002 ] } },
{ "type": "Feature", "properties": { "InventoryId": "734450", "ShortName": "KFAT", "LongName": "Fresno Yosemite International Airport", "Latitude": 36.77, "Longitude": -119.720001 }, "geometry": { "type": "Point", "coordinates": [ -119.720001, 36.77 ] } },
{ "type": "Feature", "properties": { "InventoryId": "734497", "ShortName": "KFNT", "LongName": "Flint Bishop International Airport", "Latitude": 42.970001, "Longitude": -83.75 }, "geometry": { "type": "Point", "coordinates": [ -83.75, 42.970001 ] } },
{ "type": "Feature", "properties": { "InventoryId": "734511", "ShortName": "KFSD", "LongName": "Sioux Falls Foss Field", "Latitude": 43.580002, "Longitude": -96.75 }, "geometry": { "type": "Point", "coordinates": [ -96.75, 43.580002 ] } },
{ "type": "Feature", "properties": { "InventoryId": "734514", "ShortName": "KFSM", "LongName": "Fort Smith Regional Airport", "Latitude": 35.330002, "Longitude": -94.370003 }, "geometry": { "type": "Point", "coordinates": [ -94.370003, 35.330002 ] } },
{ "type": "Feature", "properties": { "InventoryId": "734526", "ShortName": "KFWA", "LongName": "Fort Wayne International Airport", "Latitude": 40.98, "Longitude": -85.190002 }, "geometry": { "type": "Point", "coordinates": [ -85.190002, 40.98 ] } },
{ "type": "Feature", "properties": { "InventoryId": "734548", "ShortName": "KGCC", "LongName": "Gillette Campbell County Airport", "Latitude": 44.349998, "Longitude": -105.529999 }, "geometry": { "type": "Point", "coordinates": [ -105.529999, 44.349998 ] } },
{ "type": "Feature", "properties": { "InventoryId": "734558", "ShortName": "KGEG", "LongName": "Spokane International Airport", "Latitude": 47.630001, "Longitude": -117.529999 }, "geometry": { "type": "Point", "coordinates": [ -117.529999, 47.630001 ] } },
{ "type": "Feature", "properties": { "InventoryId": "734570", "ShortName": "KGGW", "LongName": "Glasgow International Airport", "Latitude": 48.220001, "Longitude": -106.620003 }, "geometry": { "type": "Point", "coordinates": [ -106.620003, 48.220001 ] } },
{ "type": "Feature", "properties": { "InventoryId": "734576", "ShortName": "KGJT", "LongName": "Grand Junction Walker Field", "Latitude": 39.130001, "Longitude": -108.529999 }, "geometry": { "type": "Point", "coordinates": [ -108.529999, 39.130001 ] } },
{ "type": "Feature", "properties": { "InventoryId": "734580", "ShortName": "KGLD", "LongName": "Goodland Renner Field", "Latitude": 39.369999, "Longitude": -101.699997 }, "geometry": { "type": "Point", "coordinates": [ -101.699997, 39.369999 ] } },
{ "type": "Feature", "properties": { "InventoryId": "734583", "ShortName": "KGLS", "LongName": "Galveston Scholes Field", "Latitude": 29.299999, "Longitude": -94.800003 }, "geometry": { "type": "Point", "coordinates": [ -94.800003, 29.299999 ] } },
{ "type": "Feature", "properties": { "InventoryId": "734599", "ShortName": "KGPI", "LongName": "Kalispell Glacier Park International Airport", "Latitude": 48.299999, "Longitude": -114.260002 }, "geometry": { "type": "Point", "coordinates": [ -114.260002, 48.299999 ] } },
{ "type": "Feature", "properties": { "InventoryId": "734603", "ShortName": "KGRB", "LongName": "Green Bay Austin Straubel International Airport", "Latitude": 44.48, "Longitude": -88.129997 }, "geometry": { "type": "Point", "coordinates": [ -88.129997, 44.48 ] } },
{ "type": "Feature", "properties": { "InventoryId": "734606", "ShortName": "KGRI", "LongName": "Grand Island Central Nebraska Regional Airport", "Latitude": 40.970001, "Longitude": -98.32 }, "geometry": { "type": "Point", "coordinates": [ -98.32, 40.970001 ] } },
{ "type": "Feature", "properties": { "InventoryId": "734608", "ShortName": "KGRR", "LongName": "Grand Rapids Gerald R Ford International", "Latitude": 42.880001, "Longitude": -85.519997 }, "geometry": { "type": "Point", "coordinates": [ -85.519997, 42.880001 ] } },
{ "type": "Feature", "properties": { "InventoryId": "734612", "ShortName": "KGSO", "LongName": "Greensboro Piedmont Triad International Airport", "Latitude": 36.080002, "Longitude": -79.949997 }, "geometry": { "type": "Point", "coordinates": [ -79.949997, 36.080002 ] } },
{ "type": "Feature", "properties": { "InventoryId": "734613", "ShortName": "KGSP", "LongName": "Greer Greenville-Spartanburg Airport", "Latitude": 34.880001, "Longitude": -82.220001 }, "geometry": { "type": "Point", "coordinates": [ -82.220001, 34.880001 ] } },
{ "type": "Feature", "properties": { "InventoryId": "734615", "ShortName": "KGTF", "LongName": "Great Falls International Airport", "Latitude": 47.48, "Longitude": -111.370003 }, "geometry": { "type": "Point", "coordinates": [ -111.370003, 47.48 ] } },
{ "type": "Feature", "properties": { "InventoryId": "734684", "ShortName": "KHLN", "LongName": "Helena Regional Airport", "Latitude": 46.599998, "Longitude": -112.0 }, "geometry": { "type": "Point", "coordinates": [ -112.0, 46.599998 ] } },
{ "type": "Feature", "properties": { "InventoryId": "734695", "ShortName": "KHON", "LongName": "Huron Regional Airport", "Latitude": 44.380001, "Longitude": -98.220001 }, "geometry": { "type": "Point", "coordinates": [ -98.220001, 44.380001 ] } },
{ "type": "Feature", "properties": { "InventoryId": "734711", "ShortName": "KHSE", "LongName": "Hatteras Billy Mitchell Airport", "Latitude": 35.220001, "Longitude": -75.620003 }, "geometry": { "type": "Point", "coordinates": [ -75.620003, 35.220001 ] } },
{ "type": "Feature", "properties": { "InventoryId": "734715", "ShortName": "KHSV", "LongName": "Huntsville International \/ Jones Field", "Latitude": 34.650002, "Longitude": -86.769997 }, "geometry": { "type": "Point", "coordinates": [ -86.769997, 34.650002 ] } },
{ "type": "Feature", "properties": { "InventoryId": "734716", "ShortName": "KHTL", "LongName": "Houghton Lake Roscommon Co Airport", "Latitude": 44.349998, "Longitude": -84.669998 }, "geometry": { "type": "Point", "coordinates": [ -84.669998, 44.349998 ] } },
{ "type": "Feature", "properties": { "InventoryId": "734718", "ShortName": "KHTS", "LongName": "Huntington Tri-State Airport", "Latitude": 38.369999, "Longitude": -82.550003 }, "geometry": { "type": "Point", "coordinates": [ -82.550003, 38.369999 ] } },
{ "type": "Feature", "properties": { "InventoryId": "734726", "ShortName": "KHVR", "LongName": "Havre City-County Airport", "Latitude": 48.549999, "Longitude": -109.769997 }, "geometry": { "type": "Point", "coordinates": [ -109.769997, 48.549999 ] } },
{ "type": "Feature", "properties": { "InventoryId": "734751", "ShortName": "KIAD", "LongName": "Washington DC Dulles International Airport", "Latitude": 38.950001, "Longitude": -77.449997 }, "geometry": { "type": "Point", "coordinates": [ -77.449997, 38.950001 ] } },
{ "type": "Feature", "properties": { "InventoryId": "734753", "ShortName": "KIAH", "LongName": "Houston Bush Intercontinental Airport", "Latitude": 29.969999, "Longitude": -95.349998 }, "geometry": { "type": "Point", "coordinates": [ -95.349998, 29.969999 ] } },
{ "type": "Feature", "properties": { "InventoryId": "734756", "ShortName": "KICT", "LongName": "Wichita Mid-Continent Airport", "Latitude": 37.650002, "Longitude": -97.43 }, "geometry": { "type": "Point", "coordinates": [ -97.43, 37.650002 ] } },
{ "type": "Feature", "properties": { "InventoryId": "734777", "ShortName": "KILM", "LongName": "Wilmington International Airport", "Latitude": 34.27, "Longitude": -77.900002 }, "geometry": { "type": "Point", "coordinates": [ -77.900002, 34.27 ] } },
{ "type": "Feature", "properties": { "InventoryId": "734782", "ShortName": "KIND", "LongName": "Indianapolis International Airport", "Latitude": 39.73, "Longitude": -86.269997 }, "geometry": { "type": "Point", "coordinates": [ -86.269997, 39.73 ] } },
{ "type": "Feature", "properties": { "InventoryId": "734786", "ShortName": "KINL", "LongName": "International Falls International Airport", "Latitude": 48.57, "Longitude": -93.379997 }, "geometry": { "type": "Point", "coordinates": [ -93.379997, 48.57 ] } },
{ "type": "Feature", "properties": { "InventoryId": "734789", "ShortName": "KINW", "LongName": "Winslow Municipal Airport", "Latitude": 35.02, "Longitude": -110.730003 }, "geometry": { "type": "Point", "coordinates": [ -110.730003, 35.02 ] } },
{ "type": "Feature", "properties": { "InventoryId": "734795", "ShortName": "KIPT", "LongName": "Williamsport Regional Airport", "Latitude": 41.25, "Longitude": -76.919998 }, "geometry": { "type": "Point", "coordinates": [ -76.919998, 41.25 ] } },
{ "type": "Feature", "properties": { "InventoryId": "734799", "ShortName": "KISN", "LongName": "Williston Sloulin International Airport", "Latitude": 48.169998, "Longitude": -103.599998 }, "geometry": { "type": "Point", "coordinates": [ -103.599998, 48.169998 ] } },
{ "type": "Feature", "properties": { "InventoryId": "734816", "ShortName": "KJAN", "LongName": "Jackson International Airport", "Latitude": 32.32, "Longitude": -90.080002 }, "geometry": { "type": "Point", "coordinates": [ -90.080002, 32.32 ] } },
{ "type": "Feature", "properties": { "InventoryId": "734819", "ShortName": "KJAX", "LongName": "Jacksonville International Airport", "Latitude": 30.5, "Longitude": -81.699997 }, "geometry": { "type": "Point", "coordinates": [ -81.699997, 30.5 ] } },
{ "type": "Feature", "properties": { "InventoryId": "734827", "ShortName": "KJFK", "LongName": "New York J F Kennedy International Airport", "Latitude": 40.650002, "Longitude": -73.779999 }, "geometry": { "type": "Point", "coordinates": [ -73.779999, 40.650002 ] } },
{ "type": "Feature", "properties": { "InventoryId": "734868", "ShortName": "KLAS", "LongName": "Las Vegas McCarran International Airport", "Latitude": 36.080002, "Longitude": -115.169998 }, "geometry": { "type": "Point", "coordinates": [ -115.169998, 36.080002 ] } },
{ "type": "Feature", "properties": { "InventoryId": "734870", "ShortName": "KLAX", "LongName": "Los Angeles International Airport", "Latitude": 33.93, "Longitude": -118.400002 }, "geometry": { "type": "Point", "coordinates": [ -118.400002, 33.93 ] } },
{ "type": "Feature", "properties": { "InventoryId": "734871", "ShortName": "KLBB", "LongName": "Lubbock International Airport", "Latitude": 33.650002, "Longitude": -101.82 }, "geometry": { "type": "Point", "coordinates": [ -101.82, 33.650002 ] } },
{ "type": "Feature", "properties": { "InventoryId": "734873", "ShortName": "KLBF", "LongName": "North Platte Regional Airport", "Latitude": 41.130001, "Longitude": -100.68 }, "geometry": { "type": "Point", "coordinates": [ -100.68, 41.130001 ] } },
{ "type": "Feature", "properties": { "InventoryId": "734879", "ShortName": "KLCH", "LongName": "Lake Charles Regional Airport", "Latitude": 30.120001, "Longitude": -93.220001 }, "geometry": { "type": "Point", "coordinates": [ -93.220001, 30.120001 ] } },
{ "type": "Feature", "properties": { "InventoryId": "734887", "ShortName": "KLEX", "LongName": "Lexington Bluegrass Airport", "Latitude": 38.049999, "Longitude": -84.599998 }, "geometry": { "type": "Point", "coordinates": [ -84.599998, 38.049999 ] } },
{ "type": "Feature", "properties": { "InventoryId": "734888", "ShortName": "KLFI", "LongName": "Langley Air Force Base", "Latitude": 37.080002, "Longitude": -76.370003 }, "geometry": { "type": "Point", "coordinates": [ -76.370003, 37.080002 ] } },
{ "type": "Feature", "properties": { "InventoryId": "734892", "ShortName": "KLGB", "LongName": "Long Beach Daugherty Field", "Latitude": 33.82, "Longitude": -118.150002 }, "geometry": { "type": "Point", "coordinates": [ -118.150002, 33.82 ] } },
{ "type": "Feature", "properties": { "InventoryId": "734903", "ShortName": "KLIT", "LongName": "Little Rock Adams Field", "Latitude": 34.73, "Longitude": -92.230003 }, "geometry": { "type": "Point", "coordinates": [ -92.230003, 34.73 ] } },
{ "type": "Feature", "properties": { "InventoryId": "734913", "ShortName": "KLND", "LongName": "Lander Hunt Field", "Latitude": 42.82, "Longitude": -108.730003 }, "geometry": { "type": "Point", "coordinates": [ -108.730003, 42.82 ] } },
{ "type": "Feature", "properties": { "InventoryId": "734914", "ShortName": "KLNK", "LongName": "Lincoln Municipal Airport", "Latitude": 40.849998, "Longitude": -96.75 }, "geometry": { "type": "Point", "coordinates": [ -96.75, 40.849998 ] } },
{ "type": "Feature", "properties": { "InventoryId": "734933", "ShortName": "KLSE", "LongName": "La Crosse Municipal Airport", "Latitude": 43.869999, "Longitude": -91.25 }, "geometry": { "type": "Point", "coordinates": [ -91.25, 43.869999 ] } },
{ "type": "Feature", "properties": { "InventoryId": "734953", "ShortName": "KLWS", "LongName": "Lewiston Nez Perce County Airport", "Latitude": 46.380001, "Longitude": -117.019997 }, "geometry": { "type": "Point", "coordinates": [ -117.019997, 46.380001 ] } },
{ "type": "Feature", "properties": { "InventoryId": "734961", "ShortName": "KLYH", "LongName": "Lynchburg Regional Airport", "Latitude": 37.330002, "Longitude": -79.199997 }, "geometry": { "type": "Point", "coordinates": [ -79.199997, 37.330002 ] } },
{ "type": "Feature", "properties": { "InventoryId": "734972", "ShortName": "KMAF", "LongName": "Midland International Airport", "Latitude": 31.950001, "Longitude": -102.220001 }, "geometry": { "type": "Point", "coordinates": [ -102.220001, 31.950001 ] } },
{ "type": "Feature", "properties": { "InventoryId": "734985", "ShortName": "KMCI", "LongName": "Kansas City International Airport", "Latitude": 39.32, "Longitude": -94.720001 }, "geometry": { "type": "Point", "coordinates": [ -94.720001, 39.32 ] } },
{ "type": "Feature", "properties": { "InventoryId": "734988", "ShortName": "KMCN", "LongName": "Macon Middle Georgia Regional Airport", "Latitude": 32.700001, "Longitude": -83.650002 }, "geometry": { "type": "Point", "coordinates": [ -83.650002, 32.700001 ] } },
{ "type": "Feature", "properties": { "InventoryId": "734989", "ShortName": "KMCO", "LongName": "Orlando International Airport", "Latitude": 28.43, "Longitude": -81.32 }, "geometry": { "type": "Point", "coordinates": [ -81.32, 28.43 ] } },
{ "type": "Feature", "properties": { "InventoryId": "734998", "ShortName": "KMDW", "LongName": "Chicago Midway Airport", "Latitude": 41.779999, "Longitude": -87.75 }, "geometry": { "type": "Point", "coordinates": [ -87.75, 41.779999 ] } },
{ "type": "Feature", "properties": { "InventoryId": "735002", "ShortName": "KMEI", "LongName": "Meridian Key Field", "Latitude": 32.330002, "Longitude": -88.75 }, "geometry": { "type": "Point", "coordinates": [ -88.75, 32.330002 ] } },
{ "type": "Feature", "properties": { "InventoryId": "735003", "ShortName": "KMEM", "LongName": "Memphis International Airport", "Latitude": 35.049999, "Longitude": -90.0 }, "geometry": { "type": "Point", "coordinates": [ -90.0, 35.049999 ] } },
{ "type": "Feature", "properties": { "InventoryId": "735010", "ShortName": "KMFR", "LongName": "Medford Rogue Valley International Airport", "Latitude": 42.369999, "Longitude": -122.870003 }, "geometry": { "type": "Point", "coordinates": [ -122.870003, 42.369999 ] } },
{ "type": "Feature", "properties": { "InventoryId": "735015", "ShortName": "KMGM", "LongName": "Montgomery Dannelly Field", "Latitude": 32.299999, "Longitude": -86.400002 }, "geometry": { "type": "Point", "coordinates": [ -86.400002, 32.299999 ] } },
{ "type": "Feature", "properties": { "InventoryId": "735026", "ShortName": "KMIA", "LongName": "Miami International Airport", "Latitude": 25.790001, "Longitude": -80.32 }, "geometry": { "type": "Point", "coordinates": [ -80.32, 25.790001 ] } },
{ "type": "Feature", "properties": { "InventoryId": "735036", "ShortName": "KMKE", "LongName": "Milwaukee Mitchell International Airport", "Latitude": 42.950001, "Longitude": -87.900002 }, "geometry": { "type": "Point", "coordinates": [ -87.900002, 42.950001 ] } },
{ "type": "Feature", "properties": { "InventoryId": "735037", "ShortName": "KMKG", "LongName": "Muskegon County Airport", "Latitude": 43.169998, "Longitude": -86.25 }, "geometry": { "type": "Point", "coordinates": [ -86.25, 43.169998 ] } },
{ "type": "Feature", "properties": { "InventoryId": "735045", "ShortName": "KMLB", "LongName": "Melbourne International Airport", "Latitude": 28.1, "Longitude": -80.650002 }, "geometry": { "type": "Point", "coordinates": [ -80.650002, 28.1 ] } },
{ "type": "Feature", "properties": { "InventoryId": "735048", "ShortName": "KMLF", "LongName": "Milford Municipal Airport", "Latitude": 38.43, "Longitude": -113.019997 }, "geometry": { "type": "Point", "coordinates": [ -113.019997, 38.43 ] } },
{ "type": "Feature", "properties": { "InventoryId": "735049", "ShortName": "KMLI", "LongName": "Moline Quad City International Airport", "Latitude": 41.450001, "Longitude": -90.519997 }, "geometry": { "type": "Point", "coordinates": [ -90.519997, 41.450001 ] } },
{ "type": "Feature", "properties": { "InventoryId": "735052", "ShortName": "KMLS", "LongName": "Miles City F Wiley Field", "Latitude": 46.43, "Longitude": -105.870003 }, "geometry": { "type": "Point", "coordinates": [ -105.870003, 46.43 ] } },
{ "type": "Feature", "properties": { "InventoryId": "735066", "ShortName": "KMOB", "LongName": "Mobile Regional Airport", "Latitude": 30.68, "Longitude": -88.25 }, "geometry": { "type": "Point", "coordinates": [ -88.25, 30.68 ] } },
{ "type": "Feature", "properties": { "InventoryId": "735076", "ShortName": "KMQE", "LongName": "East Milton Blue Hill Observatory", "Latitude": 42.209999, "Longitude": -71.110001 }, "geometry": { "type": "Point", "coordinates": [ -71.110001, 42.209999 ] } },
{ "type": "Feature", "properties": { "InventoryId": "735088", "ShortName": "KMSN", "LongName": "Madison Dane County Regional Airport", "Latitude": 43.130001, "Longitude": -89.349998 }, "geometry": { "type": "Point", "coordinates": [ -89.349998, 43.130001 ] } },
{ "type": "Feature", "properties": { "InventoryId": "735089", "ShortName": "KMSO", "LongName": "Missoula International Airport", "Latitude": 46.919998, "Longitude": -114.080002 }, "geometry": { "type": "Point", "coordinates": [ -114.080002, 46.919998 ] } },
{ "type": "Feature", "properties": { "InventoryId": "735090", "ShortName": "KMSP", "LongName": "Minneapolis-St. Paul International Airport", "Latitude": 44.880001, "Longitude": -93.220001 }, "geometry": { "type": "Point", "coordinates": [ -93.220001, 44.880001 ] } },
{ "type": "Feature", "properties": { "InventoryId": "735093", "ShortName": "KMSY", "LongName": "New Orleans International Airport", "Latitude": 29.98, "Longitude": -90.25 }, "geometry": { "type": "Point", "coordinates": [ -90.25, 29.98 ] } },
{ "type": "Feature", "properties": { "InventoryId": "735190", "ShortName": "KOFK", "LongName": "Norfolk Karl Stefan Mem Airport", "Latitude": 41.98, "Longitude": -97.43 }, "geometry": { "type": "Point", "coordinates": [ -97.43, 41.98 ] } },
{ "type": "Feature", "properties": { "InventoryId": "735198", "ShortName": "KOKC", "LongName": "Oklahoma City Will Rogers World Airport", "Latitude": 35.400002, "Longitude": -97.599998 }, "geometry": { "type": "Point", "coordinates": [ -97.599998, 35.400002 ] } },
{ "type": "Feature", "properties": { "InventoryId": "735205", "ShortName": "KOLM", "LongName": "Olympia Airport", "Latitude": 46.970001, "Longitude": -122.900002 }, "geometry": { "type": "Point", "coordinates": [ -122.900002, 46.970001 ] } },
{ "type": "Feature", "properties": { "InventoryId": "735210", "ShortName": "KOMA", "LongName": "Omaha Eppley Airfield", "Latitude": 41.299999, "Longitude": -95.900002 }, "geometry": { "type": "Point", "coordinates": [ -95.900002, 41.299999 ] } },
{ "type": "Feature", "properties": { "InventoryId": "735227", "ShortName": "KORD", "LongName": "Chicago OHare International Airport", "Latitude": 41.98, "Longitude": -87.900002 }, "geometry": { "type": "Point", "coordinates": [ -87.900002, 41.98 ] } },
{ "type": "Feature", "properties": { "InventoryId": "735229", "ShortName": "KORF", "LongName": "Norfolk International Airport", "Latitude": 36.900002, "Longitude": -76.199997 }, "geometry": { "type": "Point", "coordinates": [ -76.199997, 36.900002 ] } },
{ "type": "Feature", "properties": { "InventoryId": "735264", "ShortName": "KPAH", "LongName": "Paducah Barkley Regional Airport", "Latitude": 37.07, "Longitude": -88.769997 }, "geometry": { "type": "Point", "coordinates": [ -88.769997, 37.07 ] } },
{ "type": "Feature", "properties": { "InventoryId": "735270", "ShortName": "KPBI", "LongName": "West Palm Beach International Airport", "Latitude": 26.68, "Longitude": -80.120003 }, "geometry": { "type": "Point", "coordinates": [ -80.120003, 26.68 ] } },
{ "type": "Feature", "properties": { "InventoryId": "735277", "ShortName": "KPDT", "LongName": "Pendleton East Oregon Regional Airport", "Latitude": 45.68, "Longitude": -118.849998 }, "geometry": { "type": "Point", "coordinates": [ -118.849998, 45.68 ] } },
{ "type": "Feature", "properties": { "InventoryId": "735278", "ShortName": "KPDX", "LongName": "Portland International Airport", "Latitude": 45.599998, "Longitude": -122.599998 }, "geometry": { "type": "Point", "coordinates": [ -122.599998, 45.599998 ] } },
{ "type": "Feature", "properties": { "InventoryId": "735291", "ShortName": "KPHX", "LongName": "Phoenix Sky Harbor International Airport", "Latitude": 33.43, "Longitude": -112.019997 }, "geometry": { "type": "Point", "coordinates": [ -112.019997, 33.43 ] } },
{ "type": "Feature", "properties": { "InventoryId": "735292", "ShortName": "KPIA", "LongName": "Peoria Greater Peoria Airport", "Latitude": 40.669998, "Longitude": -89.68 }, "geometry": { "type": "Point", "coordinates": [ -89.68, 40.669998 ] } },
{ "type": "Feature", "properties": { "InventoryId": "735295", "ShortName": "KPIH", "LongName": "Pocatello Regional Airport", "Latitude": 42.919998, "Longitude": -112.57 }, "geometry": { "type": "Point", "coordinates": [ -112.57, 42.919998 ] } },
{ "type": "Feature", "properties": { "InventoryId": "735311", "ShortName": "KPNS", "LongName": "Pensacola Regional Airport", "Latitude": 30.469999, "Longitude": -87.18 }, "geometry": { "type": "Point", "coordinates": [ -87.18, 30.469999 ] } },
{ "type": "Feature", "properties": { "InventoryId": "735313", "ShortName": "KPOB", "LongName": "Fayetteville Pope Air Force Base", "Latitude": 35.169998, "Longitude": -79.019997 }, "geometry": { "type": "Point", "coordinates": [ -79.019997, 35.169998 ] } },
{ "type": "Feature", "properties": { "InventoryId": "735348", "ShortName": "KPUB", "LongName": "Pueblo Memorial Airport", "Latitude": 38.279999, "Longitude": -104.519997 }, "geometry": { "type": "Point", "coordinates": [ -104.519997, 38.279999 ] } },
{ "type": "Feature", "properties": { "InventoryId": "735417", "ShortName": "KRAP", "LongName": "Rapid City Regional Airport", "Latitude": 44.049999, "Longitude": -103.07 }, "geometry": { "type": "Point", "coordinates": [ -103.07, 44.049999 ] } },
{ "type": "Feature", "properties": { "InventoryId": "735421", "ShortName": "KRBL", "LongName": "Red Bluff Municipal Airport", "Latitude": 40.150002, "Longitude": -122.25 }, "geometry": { "type": "Point", "coordinates": [ -122.25, 40.150002 ] } },
{ "type": "Feature", "properties": { "InventoryId": "735431", "ShortName": "KRDD", "LongName": "Redding Municipal Airport", "Latitude": 40.5, "Longitude": -122.300003 }, "geometry": { "type": "Point", "coordinates": [ -122.300003, 40.5 ] } },
{ "type": "Feature", "properties": { "InventoryId": "735436", "ShortName": "KRDU", "LongName": "Raleigh Durham International Airport", "Latitude": 35.880001, "Longitude": -78.790001 }, "geometry": { "type": "Point", "coordinates": [ -78.790001, 35.880001 ] } },
{ "type": "Feature", "properties": { "InventoryId": "735438", "ShortName": "KRFD", "LongName": "Rockford Greater Rockford Airport", "Latitude": 42.200001, "Longitude": -89.099998 }, "geometry": { "type": "Point", "coordinates": [ -89.099998, 42.200001 ] } },
{ "type": "Feature", "properties": { "InventoryId": "735444", "ShortName": "KRIC", "LongName": "Richmond International Airport", "Latitude": 37.5, "Longitude": -77.330002 }, "geometry": { "type": "Point", "coordinates": [ -77.330002, 37.5 ] } },
{ "type": "Feature", "properties": { "InventoryId": "735460", "ShortName": "KRNO", "LongName": "Reno Tahoe International Airport", "Latitude": 39.5, "Longitude": -119.779999 }, "geometry": { "type": "Point", "coordinates": [ -119.779999, 39.5 ] } },
{ "type": "Feature", "properties": { "InventoryId": "735464", "ShortName": "KROA", "LongName": "Roanoke Regional Airport", "Latitude": 37.32, "Longitude": -79.970001 }, "geometry": { "type": "Point", "coordinates": [ -79.970001, 37.32 ] } },
{ "type": "Feature", "properties": { "InventoryId": "735468", "ShortName": "KROW", "LongName": "Roswell Industrial Air Park", "Latitude": 33.299999, "Longitude": -104.529999 }, "geometry": { "type": "Point", "coordinates": [ -104.529999, 33.299999 ] } },
{ "type": "Feature", "properties": { "InventoryId": "735482", "ShortName": "KRST", "LongName": "Rochester International Airport", "Latitude": 43.919998, "Longitude": -92.5 }, "geometry": { "type": "Point", "coordinates": [ -92.5, 43.919998 ] } },
{ "type": "Feature", "properties": { "InventoryId": "735509", "ShortName": "KSAC", "LongName": "Sacramento Executive Airport", "Latitude": 38.52, "Longitude": -121.5 }, "geometry": { "type": "Point", "coordinates": [ -121.5, 38.52 ] } },
{ "type": "Feature", "properties": { "InventoryId": "735512", "ShortName": "KSAN", "LongName": "San Diego Lindbergh Field", "Latitude": 32.73, "Longitude": -117.18 }, "geometry": { "type": "Point", "coordinates": [ -117.18, 32.73 ] } },
{ "type": "Feature", "properties": { "InventoryId": "735514", "ShortName": "KSAT", "LongName": "San Antonio International Airport", "Latitude": 29.530001, "Longitude": -98.470001 }, "geometry": { "type": "Point", "coordinates": [ -98.470001, 29.530001 ] } },
{ "type": "Feature", "properties": { "InventoryId": "735515", "ShortName": "KSAV", "LongName": "Savannah International Airport", "Latitude": 32.119999, "Longitude": -81.199997 }, "geometry": { "type": "Point", "coordinates": [ -81.199997, 32.119999 ] } },
{ "type": "Feature", "properties": { "InventoryId": "735518", "ShortName": "KSBA", "LongName": "Santa Barbara Municipal Airport", "Latitude": 34.43, "Longitude": -119.830002 }, "geometry": { "type": "Point", "coordinates": [ -119.830002, 34.43 ] } },
{ "type": "Feature", "properties": { "InventoryId": "735529", "ShortName": "KSCK", "LongName": "Stockton Metropolitan Airport", "Latitude": 37.900002, "Longitude": -121.25 }, "geometry": { "type": "Point", "coordinates": [ -121.25, 37.900002 ] } },
{ "type": "Feature", "properties": { "InventoryId": "735531", "ShortName": "KSDB", "LongName": "Sandberg", "Latitude": 34.75, "Longitude": -118.720001 }, "geometry": { "type": "Point", "coordinates": [ -118.720001, 34.75 ] } },
{ "type": "Feature", "properties": { "InventoryId": "735532", "ShortName": "KSDF", "LongName": "Louisville Standiford Field", "Latitude": 38.18, "Longitude": -85.730003 }, "geometry": { "type": "Point", "coordinates": [ -85.730003, 38.18 ] } },
{ "type": "Feature", "properties": { "InventoryId": "735536", "ShortName": "KSEA", "LongName": "Seattle Tacoma International Airport", "Latitude": 47.450001, "Longitude": -122.300003 }, "geometry": { "type": "Point", "coordinates": [ -122.300003, 47.450001 ] } },
{ "type": "Feature", "properties": { "InventoryId": "735545", "ShortName": "KSFO", "LongName": "San Francisco International Airport", "Latitude": 37.619999, "Longitude": -122.379997 }, "geometry": { "type": "Point", "coordinates": [ -122.379997, 37.619999 ] } },
{ "type": "Feature", "properties": { "InventoryId": "735549", "ShortName": "KSGF", "LongName": "Springfield Regional Airport", "Latitude": 37.23, "Longitude": -93.379997 }, "geometry": { "type": "Point", "coordinates": [ -93.379997, 37.23 ] } },
{ "type": "Feature", "properties": { "InventoryId": "735559", "ShortName": "KSHR", "LongName": "Sheridan County Airport", "Latitude": 44.77, "Longitude": -106.970001 }, "geometry": { "type": "Point", "coordinates": [ -106.970001, 44.77 ] } },
{ "type": "Feature", "properties": { "InventoryId": "735560", "ShortName": "KSHV", "LongName": "Shreveport Regional Airport", "Latitude": 32.470001, "Longitude": -93.82 }, "geometry": { "type": "Point", "coordinates": [ -93.82, 32.470001 ] } },
{ "type": "Feature", "properties": { "InventoryId": "735566", "ShortName": "KSJT", "LongName": "San Angelo Mathis Field", "Latitude": 31.370001, "Longitude": -100.5 }, "geometry": { "type": "Point", "coordinates": [ -100.5, 31.370001 ] } },
{ "type": "Feature", "properties": { "InventoryId": "735571", "ShortName": "KSLC", "LongName": "Salt Lake City International Airport", "Latitude": 40.779999, "Longitude": -111.970001 }, "geometry": { "type": "Point", "coordinates": [ -111.970001, 40.779999 ] } },
{ "type": "Feature", "properties": { "InventoryId": "735572", "ShortName": "KSLE", "LongName": "Salem McNary Field", "Latitude": 44.919998, "Longitude": -123.0 }, "geometry": { "type": "Point", "coordinates": [ -123.0, 44.919998 ] } },
{ "type": "Feature", "properties": { "InventoryId": "735585", "ShortName": "KSMX", "LongName": "Santa Maria Public Airport", "Latitude": 34.900002, "Longitude": -120.449997 }, "geometry": { "type": "Point", "coordinates": [ -120.449997, 34.900002 ] } },
{ "type": "Feature", "properties": { "InventoryId": "735592", "ShortName": "KSNY", "LongName": "Sidney Municipal Airport", "Latitude": 41.099998, "Longitude": -102.980003 }, "geometry": { "type": "Point", "coordinates": [ -102.980003, 41.099998 ] } },
{ "type": "Feature", "properties": { "InventoryId": "735604", "ShortName": "KSPS", "LongName": "Wichita Falls Municipal Airport", "Latitude": 33.98, "Longitude": -98.5 }, "geometry": { "type": "Point", "coordinates": [ -98.5, 33.98 ] } },
{ "type": "Feature", "properties": { "InventoryId": "735620", "ShortName": "KSTL", "LongName": "St. Louis Lambert International Airport", "Latitude": 38.75, "Longitude": -90.370003 }, "geometry": { "type": "Point", "coordinates": [ -90.370003, 38.75 ] } },
{ "type": "Feature", "properties": { "InventoryId": "735630", "ShortName": "KSUX", "LongName": "Sioux City Sioux Gateway Airport", "Latitude": 42.400002, "Longitude": -96.379997 }, "geometry": { "type": "Point", "coordinates": [ -96.379997, 42.400002 ] } },
{ "type": "Feature", "properties": { "InventoryId": "735674", "ShortName": "KTLH", "LongName": "Tallahassee Regional Airport", "Latitude": 30.4, "Longitude": -84.349998 }, "geometry": { "type": "Point", "coordinates": [ -84.349998, 30.4 ] } },
{ "type": "Feature", "properties": { "InventoryId": "735685", "ShortName": "KTOL", "LongName": "Toledo Express Airport", "Latitude": 41.599998, "Longitude": -83.800003 }, "geometry": { "type": "Point", "coordinates": [ -83.800003, 41.599998 ] } },
{ "type": "Feature", "properties": { "InventoryId": "735686", "ShortName": "KTOP", "LongName": "Topeka Municipal Airport", "Latitude": 39.07, "Longitude": -95.620003 }, "geometry": { "type": "Point", "coordinates": [ -95.620003, 39.07 ] } },
{ "type": "Feature", "properties": { "InventoryId": "735688", "ShortName": "KTPA", "LongName": "Tampa International Airport", "Latitude": 27.969999, "Longitude": -82.529999 }, "geometry": { "type": "Point", "coordinates": [ -82.529999, 27.969999 ] } },
{ "type": "Feature", "properties": { "InventoryId": "735704", "ShortName": "KTUL", "LongName": "Tulsa International Airport", "Latitude": 36.200001, "Longitude": -95.900002 }, "geometry": { "type": "Point", "coordinates": [ -95.900002, 36.200001 ] } },
{ "type": "Feature", "properties": { "InventoryId": "735705", "ShortName": "KTUP", "LongName": "Tupelo Regional Airport", "Latitude": 34.27, "Longitude": -88.769997 }, "geometry": { "type": "Point", "coordinates": [ -88.769997, 34.27 ] } },
{ "type": "Feature", "properties": { "InventoryId": "735706", "ShortName": "KTUS", "LongName": "Tucson International Airport", "Latitude": 32.119999, "Longitude": -110.93 }, "geometry": { "type": "Point", "coordinates": [ -110.93, 32.119999 ] } },
{ "type": "Feature", "properties": { "InventoryId": "735719", "ShortName": "KTYS", "LongName": "Knoxville McGhee Tyson Airport", "Latitude": 35.82, "Longitude": -83.980003 }, "geometry": { "type": "Point", "coordinates": [ -83.980003, 35.82 ] } },
{ "type": "Feature", "properties": { "InventoryId": "735731", "ShortName": "KUIL", "LongName": "Quillayute State Airport", "Latitude": 47.950001, "Longitude": -124.550003 }, "geometry": { "type": "Point", "coordinates": [ -124.550003, 47.950001 ] } },
{ "type": "Feature", "properties": { "InventoryId": "735756", "ShortName": "KVCT", "LongName": "Victoria Regional Airport", "Latitude": 28.85, "Longitude": -96.919998 }, "geometry": { "type": "Point", "coordinates": [ -96.919998, 28.85 ] } },
{ "type": "Feature", "properties": { "InventoryId": "735782", "ShortName": "KVTN", "LongName": "Valentine Miller Field", "Latitude": 42.869999, "Longitude": -100.550003 }, "geometry": { "type": "Point", "coordinates": [ -100.550003, 42.869999 ] } },
{ "type": "Feature", "properties": { "InventoryId": "735806", "ShortName": "KWMC", "LongName": "Winnemucca Municipal Airport", "Latitude": 40.900002, "Longitude": -117.800003 }, "geometry": { "type": "Point", "coordinates": [ -117.800003, 40.900002 ] } },
{ "type": "Feature", "properties": { "InventoryId": "735833", "ShortName": "KYKM", "LongName": "Yakima Air Terminal", "Latitude": 46.57, "Longitude": -120.529999 }, "geometry": { "type": "Point", "coordinates": [ -120.529999, 46.57 ] } },
{ "type": "Feature", "properties": { "InventoryId": "735835", "ShortName": "KYNG", "LongName": "Youngstown Regional Airport", "Latitude": 41.27, "Longitude": -80.669998 }, "geometry": { "type": "Point", "coordinates": [ -80.669998, 41.27 ] } }
]
}
